City_ID,City,Lat,Lng,Max Temp,Humidity,Cloudiness,Wind Speed,Country,Date
0,shukat as sufi,31.26,34.2826,25.519999999999982,57,4,2.76,PS,1698718268
1,waitangi,-43.9535,-176.5597,15.610000000000014,79,100,6.71,NZ,1698718131
2,strezhevoy,60.7333,77.5889,-13.199999999999989,96,12,2.24,RU,1698718269
3,bull savanna,17.8868,-77.5902,24.54000000000002,85,64,1.89,JM,1698718269
4,kegeyli shahar,42.7767,59.6078,5.199999999999989,74,0,3.8,UZ,1698718270
5,uturoa,-16.7333,-151.4333,26.75,79,8,8.03,PF,1698718271
6,mount isa,-20.7333,139.5,36.01999999999998,28,10,5.66,AU,1698718271
7,adamstown,-25.066,-130.1015,23.379999999999995,74,100,3.01,PN,1698718271
8,puerto natales,-51.7236,-72.4875,0.6899999999999977,74,0,1.46,CL,1698718272
9,bredasdorp,-34.5322,20.0403,13.279999999999973,79,0,4.55,ZA,1698718272
10,west island,-12.1568,96.8225,27.139999999999986,83,40,7.72,CC,1698718272
11,blackmans bay,-43.0167,147.3167,15.0,52,86,3.58,AU,1698718274
12,bilibino,68.0546,166.4372,-8.70999999999998,67,92,2.81,RU,1698718274
13,castillos,-34.1667,-53.8333,12.879999999999995,91,100,8.08,UY,1698718274
14,zacatecas,23.0,-103.0,16.54000000000002,80,82,1.15,MX,1698717919
15,port-aux-francais,-49.35,70.2167,3.4599999999999795,96,100,17.82,TF,1698718276
16,bethel,41.3712,-73.414,10.160000000000025,82,100,2.06,US,1698718276
17,hermanus,-34.4187,19.2345,11.899999999999977,88,5,5.19,ZA,1698718277
18,howrah,22.5892,88.3103,25.149999999999977,83,85,1.54,IN,1698718230
19,palu,-0.8917,119.8707,32.89999999999998,52,87,0.75,ID,1698718217
20,albany,42.6001,-73.9662,6.4599999999999795,82,100,0.45,US,1698718278
21,talnakh,69.4865,88.3972,-16.399999999999977,95,100,2.53,RU,1698718279
22,constantia,44.1833,28.65,11.649999999999977,79,3,2.91,RO,1698718279
23,klaksvik,62.2266,-6.589,3.660000000000025,65,74,7.78,FO,1698718280
24,magadan,59.5667,150.8,-3.4399999999999977,78,10,1.41,RU,1698718281
25,matelandia,-25.2408,-53.9964,20.399999999999977,99,62,2.23,BR,1698718192
26,thompson,55.7435,-97.8558,-6.9599999999999795,72,8,2.47,CA,1698718281
27,havre,49.5833,0.3333,11.019999999999982,87,0,4.63,FR,1698718282
28,hithadhoo,-0.6,73.0833,27.05000000000001,80,100,4.73,MV,1698718282
29,la ronge,55.1001,-105.2842,-5.199999999999989,57,24,2.52,CA,1698718027
30,guinticgan,11.5641,123.1236,27.769999999999982,76,100,2.41,PH,1698718283
31,ilulissat,69.2167,-51.1,2.160000000000025,51,7,7.2,GL,1698718284
32,avarua,-21.2078,-159.775,24.180000000000007,69,75,7.2,CK,1698718285
33,iqaluit,63.7506,-68.5145,-12.0,78,75,7.72,CA,1698718285
34,isafjordur,66.0755,-23.124,4.439999999999998,64,62,3.15,IS,1698718287
35,klyuchi,52.2667,79.1667,4.819999999999993,99,100,2.33,RU,1698718289
36,ribeira grande,38.5167,-28.7,20.019999999999982,85,13,8.49,PT,1698718289
37,morondava,-20.2833,44.2833,23.139999999999986,75,5,1.89,MG,1698718292
38,ciudad lazaro cardenas,17.9583,-102.2,26.45999999999998,88,11,1.57,MX,1698718293
39,iskateley,67.6803,53.1512,-6.509999999999991,95,87,4.47,RU,1698718294
40,puerto leguizamo,-0.1934,-74.7819,25.769999999999982,74,100,0.91,CO,1698718294
41,stutterheim,-32.5708,27.424,5.769999999999982,96,1,1.74,ZA,1698718294
42,walvis bay,-22.9575,14.5053,14.220000000000027,91,0,1.99,NA,1698718297
43,bikenibeu village,1.3673,173.1241,31.129999999999995,70,40,2.57,KI,1698718297
44,pacific grove,36.6177,-121.9166,19.339999999999975,48,0,2.68,US,1698718290
45,namibe,-15.1961,12.1522,19.160000000000025,81,0,4.06,AO,1698718299
46,grytviken,-54.2811,-36.5092,4.2099999999999795,84,97,2.48,GS,1698718300
47,porto novo,6.4965,2.6036,26.80000000000001,82,65,1.68,BJ,1698718301
48,yerofey pavlovich,53.9667,121.9667,-5.930000000000007,47,100,0.71,RU,1698718301
49,queenstown,-31.8976,26.8753,5.899999999999977,88,39,0.93,ZA,1698718301
50,aubenas,44.6201,4.3899,8.569999999999993,84,100,3.13,FR,1698718301
51,anloga,5.7947,0.8973,26.279999999999973,82,24,1.37,GH,1698718302
52,hobyo,5.3505,48.5268,26.100000000000023,86,57,2.64,SO,1698718302
53,vorgashor,67.5833,63.95,-9.95999999999998,95,100,5.14,RU,1698718302
54,erbil,36.1926,44.0106,19.05000000000001,34,0,2.06,IQ,1698718303
55,antalaha,-14.9003,50.2788,22.75999999999999,86,78,2.67,MG,1698718303
56,edinburgh of the seven seas,-37.0676,-12.3116,13.910000000000025,93,100,12.38,SH,1698718303
57,whitehorse,60.7161,-135.0538,1.579999999999984,93,100,2.57,CA,1698718304
58,enewetak,11.3474,162.3373,28.120000000000005,82,100,7.91,MH,1698718304
59,margaret river,-33.95,115.0667,17.49000000000001,47,100,3.54,AU,1698718304
60,remire-montjoly,4.9167,-52.2667,27.170000000000016,89,100,0.0,GF,1698718304
61,ancud,-41.8697,-73.8203,8.0,76,8,4.62,CL,1698718304
62,awjilah,29.1081,21.2869,20.50999999999999,52,4,2.96,LY,1698718306
63,guangming,45.3333,122.7833,6.740000000000009,27,100,4.47,CN,1698718306
64,puerto ayora,-0.7393,-90.3518,23.79000000000002,91,100,0.89,EC,1698718307
65,newman,37.3138,-121.0208,18.089999999999975,35,6,1.98,US,1698718307
66,papatowai,-46.5619,169.4708,19.079999999999984,46,100,2.37,NZ,1698718307
67,shetpe,44.1667,52.1167,9.629999999999995,77,0,1.47,KZ,1698718308
68,port mathurin,-19.6833,63.4167,24.529999999999973,81,53,8.16,MU,1698718309
69,akobo,7.4344,3.9497,24.439999999999998,88,100,1.51,NG,1698718311
70,nguigmi,14.2495,13.1092,27.79000000000002,15,100,5.14,NE,1698718312
71,qusmuryn,52.4503,64.6311,-0.4399999999999977,84,86,5.57,KZ,1698718313
72,linhares,-19.3911,-40.0722,23.519999999999982,81,100,1.9,BR,1698718063
73,bantogon,6.5333,124.0333,27.939999999999998,73,100,3.22,PH,1698718316
74,ca mau,9.1769,105.15,30.310000000000002,72,79,5.41,VN,1698718081
75,ushuaia,-54.8,-68.3,3.9599999999999795,65,75,10.29,AR,1698718316
76,petropavlovsk-kamchatsky,53.0452,158.6483,6.480000000000018,62,0,6.0,RU,1698718316
77,hawaiian paradise park,19.5933,-154.9731,26.879999999999995,87,100,3.6,US,1698718316
78,anadyr,64.75,177.4833,1.4300000000000068,93,40,2.0,RU,1698718317
79,san pedro pochutla,15.7333,-96.4667,25.49000000000001,82,95,0.96,MX,1698718044
80,abilene,32.4487,-99.7331,5.269999999999982,59,100,2.57,US,1698718306
81,qaqortoq,60.7167,-46.0333,5.740000000000009,57,100,10.03,GL,1698718317
82,ocho rios,18.4025,-77.1048,25.04000000000002,82,100,1.38,JM,1698718138
83,barranca,-10.75,-77.7667,18.129999999999995,93,100,5.64,PE,1698718318
84,rumoi,43.9344,141.6428,13.629999999999995,65,72,2.42,JP,1698718198
85,camapua,-19.5314,-54.0439,24.329999999999984,84,49,1.54,BR,1698718318
86,tazacorte,28.629,-17.9293,22.689999999999998,93,0,2.24,ES,1698718318
87,fort st. john,56.2499,-120.8529,4.089999999999975,52,75,2.57,CA,1698718318
88,nuuk,64.1835,-51.7216,10.490000000000009,29,75,8.23,GL,1698718319
89,port lincoln,-34.7333,135.8667,19.170000000000016,34,0,4.97,AU,1698718319
90,port elizabeth,-33.918,25.5701,15.310000000000002,85,0,5.14,ZA,1698718319
91,wailua homesteads,22.0669,-159.378,27.589999999999975,73,40,3.6,US,1698718319
92,geraldton,-28.7667,114.6,29.379999999999995,17,0,8.75,AU,1698718143
93,shingu,33.7333,135.9833,21.939999999999998,44,0,1.31,JP,1698718319
94,ust-nera,64.5667,143.2,-11.54000000000002,99,100,2.03,RU,1698718320
95,yellowknife,62.456,-114.3525,-1.839999999999975,100,75,2.06,CA,1698718320
96,longyearbyen,78.2186,15.6401,1.0600000000000023,69,75,1.54,SJ,1698718320
97,rio grande,-32.035,-52.0986,19.560000000000002,95,100,2.67,BR,1698718144
98,coquimbo,-29.9533,-71.3436,14.069999999999993,81,52,7.48,CL,1698718320
99,wanning,18.8003,110.3967,26.089999999999975,83,59,2.38,CN,1698718321
100,saskatoon,52.1168,-106.6345,-9.300000000000011,61,18,1.79,CA,1698718204
101,ghanzi,-21.5667,21.7833,18.920000000000016,84,8,7.25,BW,1698718321
102,st. john's,47.5649,-52.7093,1.6999999999999886,93,100,2.06,CA,1698718321
103,chonchi,-42.6128,-73.8092,3.5500000000000114,96,3,0.49,CL,1698718321
104,vadso,70.0744,29.7487,-0.7599999999999909,86,75,5.66,NO,1698718322
105,kodiak,57.79,-152.4072,7.8799999999999955,93,100,3.6,US,1698718323
106,east london,-33.0153,27.9116,13.329999999999984,86,25,4.07,ZA,1698718182
107,utrik,11.2278,169.8474,28.370000000000005,79,100,7.94,MH,1698718323
108,mangai,-4.05,19.5333,21.660000000000025,99,100,0.2,CD,1698718324
109,south hedland,-20.4089,118.5983,31.110000000000014,66,40,4.12,AU,1698718325
110,inderbor,48.55,51.7833,5.2099999999999795,75,69,3.98,KZ,1698718325
111,yeniseysk,58.4497,92.1703,-8.769999999999982,88,2,1.34,RU,1698718326
112,san antonio de pale,-1.4014,5.6325,26.49000000000001,84,100,6.45,GQ,1698718326
113,port lavaca,28.615,-96.6261,9.180000000000007,82,100,5.66,US,1698718326
114,college,64.8569,-147.8028,1.1200000000000045,83,75,0.0,US,1698718327
115,olonkinbyen,70.9221,-8.7187,1.9499999999999886,75,100,5.14,SJ,1698718327
116,yeed,4.55,43.0333,25.180000000000007,74,17,2.71,SO,1698718327
117,santiago de cao,-7.9589,-79.2392,19.220000000000027,88,75,3.6,PE,1698718239
118,chetwayi,10.5333,76.05,25.370000000000005,86,100,2.64,IN,1698718328
119,polyarnyy,69.1989,33.4478,-5.420000000000016,94,100,6.13,RU,1698718329
120,cabo san lucas,22.8909,-109.9124,27.24000000000001,79,40,3.6,MX,1698718055
121,fortuna,40.5982,-124.1573,12.660000000000025,71,0,0.0,US,1698718329
122,stanley,54.868,-1.6985,7.240000000000009,95,100,1.03,GB,1698718188
123,loreto,22.2667,-101.9667,16.939999999999998,56,2,6.95,MX,1698718330
124,woolgoolga,-30.1106,153.2007,36.839999999999975,42,51,4.07,AU,1698718330
125,atafu village,-8.5421,-172.5159,29.220000000000027,73,32,6.52,TK,1698718330
126,lebu,-37.6167,-73.65,7.8799999999999955,81,97,3.84,CL,1698718331
127,puerto deseado,-47.7503,-65.8938,4.410000000000025,59,21,6.15,AR,1698718331
128,hammerfest,70.6634,23.6821,2.3999999999999773,80,40,5.14,NO,1698718332
129,tura,25.5198,90.2201,23.29000000000002,78,68,0.8,IN,1698718332
130,invercargill,-46.4,168.35,16.829999999999984,71,100,1.79,NZ,1698718244
131,belyy yar,53.6039,91.3903,-2.910000000000025,100,75,0.0,RU,1698718333
132,kailua-kona,19.6406,-155.9956,29.129999999999995,78,20,6.17,US,1698718334
133,great falls,47.5002,-111.3008,0.39999999999997726,69,0,5.66,US,1698718304
134,manacapuru,-3.2997,-60.6206,26.899999999999977,76,100,2.78,BR,1698718334
135,grand falls-windsor,48.9332,-55.6649,0.9900000000000091,87,97,1.74,CA,1698718335
136,novodvinsk,64.4165,40.8122,-8.300000000000011,97,69,1.94,RU,1698718053
137,saipan,15.1355,145.701,32.54000000000002,70,40,7.2,MP,1698718336
138,vrbas,45.5714,19.6408,17.410000000000025,36,97,5.32,RS,1698718104
139,izluchinsk,60.9794,76.9242,-10.839999999999975,95,43,3.09,RU,1698718337
140,aykhal,66.0,111.5,-21.22,99,99,3.11,RU,1698718337
141,bamboo flat,11.7,92.7167,29.19999999999999,79,40,2.57,IN,1698718338
142,goundam,16.4145,-3.6708,29.279999999999973,12,18,3.87,ML,1698718338
143,paragominas,-2.9667,-47.4833,26.310000000000002,63,4,2.48,BR,1698718338
144,crieff,56.3727,-3.8389,6.670000000000016,76,94,3.92,GB,1698718339
145,trairi,-3.2778,-39.2689,25.970000000000027,73,10,3.83,BR,1698718045
146,cold lake,54.4502,-110.2017,-4.8799999999999955,63,100,3.6,CA,1698718339
147,vavuniya,8.7514,80.4971,24.980000000000018,90,100,1.45,LK,1698718340
148,nguru,12.8791,10.4526,26.80000000000001,17,83,4.51,NG,1698718341
149,praia da vitoria,38.7333,-27.0667,19.45999999999998,86,85,8.07,PT,1698718342
150,tofol,5.3248,163.0078,28.680000000000007,72,21,2.82,FM,1698718342
151,fisterra,42.9049,-9.2629,12.939999999999998,77,25,7.43,ES,1698718343
152,pisco,-13.7,-76.2167,19.600000000000023,82,17,7.2,PE,1698718343
153,penalva,-3.2942,-45.1736,25.110000000000014,80,0,1.62,BR,1698718343
154,tadmur,34.5608,38.2805,21.370000000000005,44,96,1.49,SY,1698718344
155,flying fish cove,-10.4217,105.6791,27.970000000000027,78,100,4.12,CX,1698718344
156,slave lake,55.2834,-114.769,0.13999999999998636,69,100,3.09,CA,1698718344
157,labrador city,52.9463,-66.9114,-4.899999999999977,68,75,2.06,CA,1698718344
158,hotan,37.0997,79.9269,14.519999999999982,17,1,0.9,CN,1698718141
159,jirja,26.3383,31.8916,24.860000000000014,50,0,2.45,EG,1698718345
160,clovis,36.8252,-119.7029,19.089999999999975,36,20,0.0,US,1698718199
161,badger,64.8,-147.5333,1.079999999999984,84,75,0.0,US,1698718346
162,altdorf,49.3875,11.3572,11.329999999999984,91,100,6.53,DE,1698718346
163,santa cruz,-17.8,-63.1667,30.779999999999973,48,100,3.75,BO,1698718346
164,tazovsky,67.4667,78.7,-17.00999999999999,97,34,2.27,RU,1698718347
165,vangaindrano,-23.35,47.6,22.329999999999984,94,11,1.94,MG,1698718347
166,coahuayana de hidalgo,18.7,-103.6583,25.970000000000027,92,51,1.62,MX,1698718348
167,tralee,52.2704,-9.7026,10.199999999999989,88,88,1.89,IE,1698718348
168,barclayville,4.6797,-8.2339,24.980000000000018,92,100,0.52,LR,1698718348
169,al jubayl,27.0112,49.6583,27.0,60,42,0.46,SA,1698718102
170,tambura,5.6,27.4667,21.30000000000001,83,22,1.22,SS,1698718350
171,zouerate,22.7187,-12.4521,27.470000000000027,16,0,2.21,MR,1698718350
172,khandyga,62.6667,135.6,-9.089999999999975,93,100,2.19,RU,1698718351
173,kharp,66.8014,65.8081,-11.019999999999982,96,100,1.9,RU,1698718351
174,whakatane,-37.9585,176.9854,18.910000000000025,96,100,3.58,NZ,1698718352
175,nar'yan-mar,67.6713,53.087,-6.4599999999999795,95,89,4.47,RU,1698718353
176,lospalos,-8.5186,127.0025,30.060000000000002,54,70,4.9,TL,1698718353
177,crane,31.3974,-102.3501,5.199999999999989,47,2,2.07,US,1698718353
178,sisimiut,66.9395,-53.6735,-0.9599999999999795,61,81,4.71,GL,1698718354
179,cuyo,10.8525,121.0086,29.160000000000025,71,99,6.04,PH,1698718355
180,peterhead,57.5058,-1.7981,4.3700000000000045,59,7,9.56,GB,1698718355
181,plastun,44.7561,136.2939,16.269999999999982,50,2,1.72,RU,1698718248
182,hilo,19.7297,-155.09,27.0,86,100,3.6,US,1698718097
183,hamilton,39.1834,-84.5333,4.839999999999975,85,0,2.57,US,1698718106
184,palmer,42.1584,-72.3287,9.170000000000016,81,75,4.12,US,1698718357
185,georgetown,5.4112,100.3354,30.120000000000005,74,20,2.06,MY,1698718182
186,vila franca do campo,37.7167,-25.4333,19.379999999999995,99,72,4.21,PT,1698718357
187,jaen,38.0,-3.5,9.740000000000009,60,100,1.35,ES,1698718358
188,jamestown,42.097,-79.2353,4.920000000000016,81,100,3.6,US,1698718124
189,canchungo,12.0672,-16.0333,25.439999999999998,86,70,1.78,GW,1698718358
190,divrigi,39.371,38.1137,15.04000000000002,56,100,0.58,TR,1698718358
191,papao,-17.75,-149.55,27.970000000000027,83,13,9.38,PF,1698718359
192,iranshahr,27.2025,60.6848,22.339999999999975,40,0,2.06,IR,1698718359
193,nemuro,43.3236,145.575,11.870000000000005,71,13,5.32,JP,1698718360
194,saint-pierre,-21.3393,55.4781,22.970000000000027,64,0,3.6,RE,1698718180
195,melfi,40.9965,15.6514,17.920000000000016,48,100,4.4,IT,1698718361
196,nantucket,41.2835,-70.0995,12.230000000000018,94,100,6.69,US,1698718158
197,ar ruways,24.1103,52.7306,28.850000000000023,70,72,5.11,AE,1698718075
198,kirakira,-10.4544,161.9205,29.519999999999982,75,39,4.83,SB,1698718361
199,ilhabela,-23.7781,-45.3581,23.870000000000005,92,100,1.49,BR,1698718361
200,aasiaat,68.7098,-52.8699,-9.970000000000027,89,29,4.11,GL,1698718362
201,las heras,-46.5419,-68.9359,5.019999999999982,42,53,5.14,AR,1698718363
202,malango,-2.9627,119.9001,29.589999999999975,46,30,2.11,ID,1698718364
203,cerro de ortega,18.75,-103.7667,25.899999999999977,91,42,1.67,MX,1698718364
204,fale old settlement,-9.3852,-171.2468,28.769999999999982,77,100,7.11,TK,1698718365
205,khanty-mansiysk,61.0042,69.0019,-10.79000000000002,79,40,3.13,RU,1698718366
206,dudinka,69.4058,86.1778,-16.170000000000016,97,99,0.89,RU,1698718181
207,faaa,-17.55,-149.6,28.129999999999995,74,75,4.47,PF,1698718248
208,amlapura,-8.45,115.6167,29.470000000000027,66,8,2.98,ID,1698718367
209,cockburn town,21.4612,-71.1419,28.810000000000002,80,99,6.11,TC,1698718367
210,haiku-pauwela,20.9219,-156.3051,27.160000000000025,71,20,7.72,US,1698718368
211,alesund,62.4723,6.1549,2.7900000000000205,73,20,5.14,NO,1698718090
212,muli,2.9167,73.5667,27.899999999999977,71,99,1.54,MV,1698718369
213,corner brook,48.9667,-57.9484,1.1499999999999773,89,100,1.31,CA,1698718183
214,suntar,62.1444,117.6319,-10.769999999999982,91,100,2.64,RU,1698718369
215,skikda,36.8762,6.9092,19.730000000000018,80,92,2.23,DZ,1698718370
216,tolanaro,-25.0319,46.9987,22.589999999999975,92,100,2.47,MG,1698718370
217,karasburg,-28.0167,18.75,13.550000000000011,67,0,5.33,NA,1698718370
218,san patricio,28.017,-97.5169,9.060000000000002,76,100,6.96,US,1698718371
219,tiksi,71.6872,128.8694,-20.569999999999993,100,81,1.18,RU,1698718371
220,nova sintra,14.8667,-24.7167,23.810000000000002,67,72,1.52,CV,1698718371
221,nova vicosa,-17.8919,-39.3719,24.670000000000016,77,64,6.11,BR,1698718116
222,umm kaddadah,13.6017,26.6876,29.370000000000005,24,100,9.19,SD,1698718372
223,las cruces,32.3123,-106.7783,9.230000000000018,45,0,2.06,US,1698718107
224,general conesa,-40.1,-64.4333,9.519999999999982,33,63,6.93,AR,1698718372
225,zilair,52.2332,57.4392,-1.8899999999999864,96,100,4.14,RU,1698718372
226,kem',64.9555,34.5793,-6.360000000000014,89,15,3.29,RU,1698718372
227,lihue,21.9789,-159.3672,27.920000000000016,72,40,3.6,US,1698718373
228,port saint john's,-31.6229,29.5448,14.870000000000005,87,100,2.49,ZA,1698718373
229,puerto maldonado,-12.6,-69.1833,27.25999999999999,69,56,0.58,PE,1698718374
230,argo,37.6333,22.7333,16.69999999999999,73,0,1.35,GR,1698718375
231,lagos,6.5833,3.75,24.329999999999984,92,80,1.01,NG,1698717936
232,tosontsengel,48.7567,98.2839,0.410000000000025,85,100,2.37,MN,1698718376
233,mar del plata,-38.0023,-57.5575,11.75,72,0,3.13,AR,1698718377
234,praia,14.9215,-23.5087,25.44999999999999,78,40,3.09,CV,1698718378
235,iwon-up,40.3231,128.6553,18.05000000000001,55,16,2.88,KP,1698718378
236,mount gambier,-37.8333,140.7667,14.680000000000007,44,76,3.92,AU,1698718260
237,daru,-9.0763,143.2092,27.170000000000016,73,93,5.88,PG,1698718378
238,kapuskasing,49.4169,-82.4331,-5.800000000000011,93,0,3.09,CA,1698718379
239,salahonda,2.1019,-78.7217,26.220000000000027,85,100,2.42,CO,1698718379
240,kresttsy,58.2452,32.5165,0.5199999999999818,100,97,1.0,RU,1698718379
241,lice,38.4592,40.6475,16.180000000000007,46,90,1.67,TR,1698718379
242,punta cardon,11.6581,-70.215,28.610000000000014,75,95,3.86,VE,1698718380
243,shache,38.4167,77.2406,11.660000000000025,32,100,3.04,CN,1698718381
244,kota tinggi,1.7381,103.8999,31.44999999999999,73,100,2.06,MY,1698718381
245,stavern,59.0,10.0333,0.8100000000000023,90,62,9.39,NO,1698718382
246,buala,-8.145,159.5921,28.519999999999982,76,99,0.59,SB,1698718382
247,chibougamau,49.9168,-74.3659,-6.060000000000002,86,40,2.57,CA,1698718382
248,saint-philippe,-21.3585,55.7679,23.920000000000016,81,16,3.95,RE,1698718383
249,antigonish,45.6169,-61.9986,4.019999999999982,96,100,1.56,CA,1698718383
250,port shepstone,-30.7414,30.455,14.889999999999986,88,100,0.48,ZA,1698718383
251,brad,46.1333,22.7833,11.79000000000002,57,8,2.13,RO,1698718384
252,sampit,-2.5333,112.95,31.620000000000005,60,55,1.32,ID,1698718384
253,tsiombe,-25.3,45.4833,20.70999999999998,88,48,3.34,MG,1698718385
254,necochea,-38.5473,-58.7368,8.240000000000009,66,4,3.71,AR,1698718385
255,cooma,-36.2333,149.1333,16.939999999999998,17,0,6.03,AU,1698718385
256,carnarvon,-24.8667,113.6333,25.939999999999998,45,0,3.58,AU,1698718385
257,otaru,43.1894,141.0022,14.910000000000025,63,89,0.34,JP,1698718197
258,kingston,17.997,-76.7936,26.399999999999977,93,100,0.96,JM,1698718386
259,narva,59.3772,28.1903,-2.660000000000025,97,48,2.53,EE,1698718387
260,chebba,35.2372,11.115,24.04000000000002,62,21,3.65,TN,1698718387
261,beloomut,54.9448,39.3394,5.7900000000000205,97,68,4.31,RU,1698718388
262,alice springs,-23.7,133.8833,28.899999999999977,13,2,7.2,AU,1698718388
263,durban,-29.8579,31.0292,14.660000000000025,92,100,2.0,ZA,1698718292
264,lata,40.1629,-8.3327,11.300000000000011,93,100,1.68,PT,1698718389
265,mirny,62.5353,113.9611,-20.28,83,19,1.79,RU,1698718389
266,kalemie,-5.9475,29.1947,23.70999999999998,74,100,0.96,CD,1698718389
267,alo,7.4178,6.7371,23.680000000000007,94,100,2.25,NG,1698718390
268,midvagur,62.0511,-7.1939,3.6100000000000136,75,75,2.06,FO,1698718390
269,sinabang,2.4803,96.3801,26.680000000000007,81,99,1.64,ID,1698718391
270,amahai,-3.3333,128.9167,30.029999999999973,65,48,2.39,ID,1698718391
271,luderitz,-26.6481,15.1594,15.870000000000005,52,3,4.15,NA,1698718393
272,mili,6.0815,171.735,28.730000000000018,76,79,5.18,MH,1698718393
273,arraial do cabo,-22.9661,-42.0278,24.470000000000027,91,100,1.55,BR,1698718393
274,maceio,-9.6658,-35.7353,22.839999999999975,94,0,1.54,BR,1698718394
275,marsh harbour,26.5412,-77.0636,26.75999999999999,87,4,6.74,BS,1698718394
276,vorkuta,67.5,64.0,-9.930000000000007,95,100,3.99,RU,1698718395
277,taungdwingyi,20.0167,95.55,25.600000000000023,75,98,1.66,MM,1698718395
278,taoudenni,22.6783,-3.9836,29.899999999999977,11,5,3.8,ML,1698718395
279,afaahiti,-17.75,-149.2833,27.079999999999984,82,41,8.21,PF,1698718396
280,arawa,-6.2132,155.5367,28.529999999999973,79,94,1.45,PG,1698718396
281,mont belvieu,29.8477,-94.8908,10.629999999999995,90,100,6.48,US,1698718396
282,jalqani,12.4486,34.2186,24.00999999999999,82,80,1.4,SD,1698718397
283,farafangana,-22.8167,47.8333,22.95999999999998,93,12,2.91,MG,1698718397
284,weno,7.4515,151.8468,30.120000000000005,79,100,2.06,FM,1698718397
285,kismayo,-0.3582,42.5454,26.589999999999975,81,19,3.25,SO,1698718227
286,meadow lake,34.8014,-106.5436,6.079999999999984,63,0,1.48,US,1698718398
287,gua,22.2,85.3833,21.519999999999982,68,0,0.77,IN,1698718398
288,popondetta,-8.7537,148.2534,24.389999999999986,96,100,1.21,PG,1698718399
289,benguela,-12.5763,13.4055,24.110000000000014,82,20,2.4,AO,1698718399
290,pandan,14.0453,124.1694,27.420000000000016,88,100,7.15,PH,1698718400
291,punta arenas,-53.15,-70.9167,2.990000000000009,60,3,4.0,CL,1698718401
292,ivdel',60.6911,60.4206,-4.279999999999973,65,98,4.02,RU,1698718401
293,vilppula,62.0212,24.5048,-1.079999999999984,87,100,2.95,FI,1698718402
294,north bend,43.4065,-124.2243,13.95999999999998,66,0,0.0,US,1698718403
295,jumla,29.2747,82.1838,10.740000000000009,68,14,1.31,NP,1698718403
296,port alfred,-33.5906,26.891,14.449999999999989,79,25,6.68,ZA,1698718403
297,falmouth,50.1544,-5.0711,13.470000000000027,82,100,6.17,GB,1698718404
298,kingsville,27.5159,-97.8561,8.25,88,100,7.72,US,1698718404
299,sikonge,-5.6333,32.7667,22.470000000000027,65,100,3.74,TZ,1698718404
300,byron bay,-28.65,153.6167,33.31999999999999,47,2,6.9,AU,1698718404
301,hovd,48.0056,91.6419,6.029999999999973,52,68,4.39,MN,1698718405
302,bataipora,-22.2953,-53.2711,22.75999999999999,93,100,0.51,BR,1698718405
303,nowshahr,36.649,51.496,18.120000000000005,88,40,0.0,IR,1698718406
304,pathein,16.7833,94.7333,26.149999999999977,84,98,4.85,MM,1698718406
305,kashgar,39.4547,75.9797,12.670000000000016,37,100,0.74,CN,1698718407
306,calintaan,12.5667,120.9333,29.420000000000016,67,100,0.36,PH,1698718407
307,visby,57.6409,18.296,9.490000000000009,100,20,4.12,SE,1698718319
308,saltpond,5.2091,-1.0606,25.79000000000002,92,29,2.32,GH,1698718408
309,rach gia,10.0167,105.0833,28.79000000000002,78,20,4.05,VN,1698718408
310,duluth,46.7833,-92.1066,0.18999999999999773,90,100,3.6,US,1698718408
311,sheregesh,52.9209,87.9869,4.569999999999993,99,100,2.45,RU,1698718169
312,belebey,54.1167,54.1167,-0.4700000000000273,97,100,5.76,RU,1698718409
313,mantua,45.1667,10.7833,15.740000000000009,91,10,1.34,IT,1698718409
314,broome,42.2506,-75.833,6.100000000000023,95,100,4.12,US,1698718410
315,el porvenir,13.7617,-87.3458,22.779999999999973,99,100,1.46,HN,1698718410
316,umred,20.85,79.3333,21.310000000000002,71,76,2.41,IN,1698718411
317,mohr,54.3528,9.7167,10.79000000000002,98,100,2.57,DE,1698718411
318,prado,-17.3411,-39.2208,24.189999999999998,79,45,4.56,BR,1698718411
319,gerze,41.8036,35.2011,19.279999999999973,69,96,2.66,TR,1698718412
320,fuglafjordur,62.244,-6.814,3.410000000000025,66,70,7.37,FO,1698718412
321,juneau,58.3019,-134.4197,5.149999999999977,97,100,0.0,US,1698718210
322,nelson,-41.2833,173.2833,19.69999999999999,59,29,2.18,NZ,1698718413
323,rye,40.9807,-73.6837,12.220000000000027,83,75,5.14,US,1698718413
324,kiffa,16.6166,-11.4045,31.480000000000018,35,36,2.63,MR,1698718413
325,eravur town,7.7782,81.6038,26.220000000000027,83,87,1.39,LK,1698718414
326,nabire,-3.3667,135.4833,28.120000000000005,82,21,1.56,ID,1698718214
327,princeville,45.7668,-61.2985,3.839999999999975,96,100,3.09,CA,1698718414
328,wuhai,39.6647,106.8122,15.490000000000009,21,1,3.04,CN,1698718415
329,rajsamand,25.0667,73.8833,17.879999999999995,44,74,1.24,IN,1698718415
330,san juan,-31.5375,-68.5364,16.620000000000005,23,2,4.12,AR,1698718325
331,machico,32.7,-16.7667,21.819999999999993,94,75,4.63,PT,1698718416
332,ibadan,7.3878,3.8964,23.860000000000014,94,99,1.38,NG,1698718416
333,ladario,-19.0047,-57.6017,30.55000000000001,42,13,1.78,BR,1698718417
334,saldanha,-33.0117,17.9442,14.449999999999989,67,1,5.11,ZA,1698718246
335,mirpur sakro,24.5474,67.6277,26.25999999999999,48,0,3.34,PK,1698718417
336,santa ana,33.7456,-117.8678,24.670000000000016,15,0,1.34,US,1698718387
337,ta`u,-14.2336,-169.5144,27.079999999999984,79,34,10.98,AS,1698718418
338,huilong,31.8111,121.655,23.439999999999998,65,0,4.0,CN,1698718418
339,nili,33.7218,66.1302,10.350000000000023,28,13,3.31,AF,1698718419
340,zhangye,38.9342,100.4517,14.420000000000016,19,10,1.62,CN,1698718171
341,port augusta,-32.5,137.7667,20.189999999999998,42,29,5.41,AU,1698718419
342,hasaki,35.7333,140.8333,21.370000000000005,52,15,2.37,JP,1698718420
343,at taj,24.2049,23.2857,19.529999999999973,43,0,3.9,LY,1698718420
344,amga,60.8953,131.9608,-9.490000000000009,85,100,2.46,RU,1698718420
345,brisas de zicatela,15.8369,-97.0419,28.439999999999998,57,20,1.54,MX,1698718420
346,acapulco de juarez,16.8634,-99.8901,27.019999999999982,85,20,1.55,MX,1698718147
347,cukurca,37.2481,43.6136,14.04000000000002,52,100,3.35,TR,1698718421
348,cooper's town,26.8667,-77.5167,26.370000000000005,88,10,8.23,BS,1698718422
349,nikolayevsk-on-amure,53.1406,140.73,3.589999999999975,42,8,4.04,RU,1698718423
350,urengoy,65.9667,78.3667,-14.220000000000027,97,21,1.79,RU,1698718423
351,udachny,66.4167,112.4,-20.50999999999999,99,100,2.55,RU,1698718424
352,minas de marcona,-15.2119,-75.1103,14.779999999999973,86,68,5.81,PE,1698718424
353,basco,20.4487,121.9702,27.170000000000016,73,67,9.34,PH,1698718425
354,tuy hoa,13.0833,109.3,26.089999999999975,89,100,3.28,VN,1698718218
355,irymple,-34.25,142.1667,18.529999999999973,39,0,3.99,AU,1698718429
356,kurayoshi,35.4333,133.8167,19.100000000000023,54,0,1.32,JP,1698718429
357,kaliningrad,54.7065,20.511,11.45999999999998,79,100,3.9,RU,1698718429
358,saint-denis,48.9167,2.3333,10.029999999999973,93,20,3.09,FR,1698718429
359,antsiranana,-12.2787,49.2917,24.139999999999986,84,64,6.5,MG,1698718430
360,tianpeng,30.9866,103.9393,18.04000000000002,78,100,1.19,CN,1698718146
361,guerrero negro,27.9769,-114.0611,22.019999999999982,45,0,4.77,MX,1698718430
362,terrace,54.5163,-128.6035,3.490000000000009,71,100,0.5,CA,1698718254
363,beaufort west,-32.3567,22.583,10.850000000000023,66,0,3.17,ZA,1698718430
364,datong,40.0936,113.2914,15.129999999999995,29,15,3.32,CN,1698718430
365,beas de segura,38.2524,-2.8888,9.910000000000025,67,100,1.36,ES,1698718430
366,freeport,40.6576,-73.5832,12.25,74,100,7.72,US,1698718431
367,gaillimh,53.2719,-9.0489,9.990000000000009,95,98,1.49,IE,1698718431
368,la'ie,21.6477,-157.9253,29.129999999999995,71,24,1.34,US,1698718431
369,castelo do piaui,-5.3222,-41.5525,24.69999999999999,55,100,1.52,BR,1698718317
370,bathsheba,13.2167,-59.5167,28.49000000000001,83,20,5.14,BB,1698718431
371,natal,-5.795,-35.2094,24.50999999999999,83,20,2.06,BR,1698718431
372,kruisfontein,-34.0033,24.7314,10.449999999999989,91,0,2.49,ZA,1698718431
373,las varillas,-31.8721,-62.7195,18.110000000000014,46,100,3.94,AR,1698718427
374,ak-suu,42.4995,78.527,9.379999999999995,42,100,1.26,KG,1698718432
375,oriximina,-1.7656,-55.8661,27.94999999999999,59,96,1.57,BR,1698718432
376,dunedin,-45.8742,170.5036,16.50999999999999,69,100,6.31,NZ,1698718432
377,dolores,-36.3132,-57.6792,8.170000000000016,69,25,4.88,AR,1698718433
378,inhambane,-23.865,35.3833,20.029999999999973,70,100,4.8,MZ,1698718433
379,jayanca,-6.3908,-79.8219,20.870000000000005,72,100,3.88,PE,1698718434
380,miri,4.4148,114.0089,29.149999999999977,74,100,1.26,MY,1698718228
381,gornopravdinsk,60.05,69.9,-10.100000000000023,92,73,2.76,RU,1698718434
382,ampanihy,-24.7,44.75,19.120000000000005,94,40,3.62,MG,1698718434
383,lorengau,-2.0226,147.2712,28.70999999999998,73,72,3.97,PG,1698718435
384,rio preto da eva,-2.6994,-59.6997,26.44999999999999,78,100,2.04,BR,1698718435
385,new norfolk,-42.7826,147.0587,15.660000000000025,41,93,5.62,AU,1698718435
386,qamdo,31.1667,97.2333,-0.9499999999999886,59,63,0.74,CN,1698718435
387,laguna,38.421,-121.4238,18.50999999999999,45,0,1.54,US,1698718435
388,kedougou,12.5579,-12.1743,24.680000000000007,81,71,0.86,SN,1698718435
389,gunnedah,-30.9833,150.25,31.839999999999975,16,100,5.05,AU,1698718436
390,sarangani,5.4033,125.4636,28.660000000000025,71,88,2.46,PH,1698718436
391,changji,44.0167,87.3167,14.589999999999975,47,0,2.0,CN,1698718436
392,sitka,57.0531,-135.33,9.089999999999975,81,100,2.57,US,1698718436
393,eyl,7.9803,49.8164,26.439999999999998,81,92,4.85,SO,1698718436
394,laojunmiao,39.8333,97.7333,11.610000000000014,21,76,1.07,CN,1698718437
395,mount pearl,47.5166,-52.7813,1.240000000000009,93,100,3.09,CA,1698718437
396,palikir - national government center,6.9248,158.1611,32.56,66,100,7.72,FM,1698718437
397,sinop,41.7711,34.8709,16.139999999999986,67,96,3.5,TR,1698718437
398,chinde,26.8418,88.0763,17.339999999999975,64,46,1.22,NP,1698718437
399,savelugu,9.6244,-0.8253,26.860000000000014,66,6,3.0,GH,1698718438
400,lourdes,43.1,-0.05,7.860000000000014,93,20,3.09,FR,1698718438
401,ugoofaaru,5.6667,73.0,27.730000000000018,73,100,1.8,MV,1698718438
402,tynda,55.1667,124.7167,-12.730000000000018,75,100,0.53,RU,1698718438
403,keflavik,64.0049,-22.5624,3.3899999999999864,75,75,5.66,IS,1698718439
404,mata-utu,-13.2816,-176.1745,28.589999999999975,75,14,6.48,WF,1698718439
405,dauphin,51.1494,-100.0502,-6.769999999999982,63,0,3.6,CA,1698718439
406,horta,38.5333,-28.6333,19.600000000000023,85,52,8.49,PT,1698718439
407,usinsk,65.9939,57.5281,-8.699999999999989,81,95,3.13,RU,1698718440
408,winslow,35.0242,-110.6974,3.25,22,0,2.57,US,1698718441
409,puerto aysen,-45.4,-72.7,1.9499999999999886,97,99,0.16,CL,1698718441
410,loango,-4.6719,11.8312,25.95999999999998,89,75,6.17,CG,1698718441
411,revuca,48.6835,20.1173,13.420000000000016,78,99,1.29,SK,1698718441
412,qarauyl,48.9451,79.255,6.610000000000014,89,100,3.93,KZ,1698718442
413,altoona,40.5187,-78.3947,7.180000000000007,80,99,1.34,US,1698718442
414,vondrozo,-22.8167,47.2833,18.680000000000007,98,62,0.27,MG,1698718443
415,macau,22.2006,113.5461,27.04000000000002,73,20,4.63,MO,1698718268
416,rolla,37.9514,-91.7713,-0.12000000000000455,78,0,0.89,US,1698718443
417,manokwari,-0.8667,134.0833,28.180000000000007,73,98,2.72,ID,1698718443
418,tenenkou,14.4572,-4.9169,29.180000000000007,21,3,3.68,ML,1698718444
419,lincheng,19.9078,109.6858,25.779999999999973,80,39,6.66,CN,1698718228
420,saudarkrokur,65.7461,-19.6394,-1.6899999999999977,82,68,4.25,IS,1698718445
421,lesnoy,57.6198,63.0784,-6.990000000000009,97,95,1.08,RU,1698718445
422,cidade velha,14.9167,-23.6167,25.410000000000025,78,40,3.09,CV,1698718445
423,kone,-21.0595,164.8658,26.69999999999999,48,30,3.96,NC,1698718446
424,sokoni,-6.4333,39.55,26.480000000000018,76,39,5.66,TZ,1698718446
425,linxia chengguanzhen,35.6003,103.2064,12.660000000000025,31,0,0.45,CN,1698718446
426,gandajika,-6.75,23.95,19.779999999999973,93,100,1.91,CD,1698718446
427,buta,2.7858,24.73,21.389999999999986,97,85,0.28,CD,1698718447
428,barra velha,-26.6322,-48.6847,22.329999999999984,98,100,2.26,BR,1698718447
429,okhotsk,59.3833,143.3,-0.8700000000000045,94,100,4.02,RU,1698718448
430,fort bragg,35.139,-79.006,23.0,70,0,4.63,US,1698718448
431,piriapolis,-34.8682,-55.2744,12.879999999999995,73,99,2.24,UY,1698718448
432,saint-paul,-21.0096,55.2707,24.20999999999998,84,2,0.89,RE,1698718449
433,mega,4.05,38.3,14.379999999999995,92,74,2.93,ET,1698718449
434,malindi,-3.2175,40.1191,25.350000000000023,88,15,2.67,KE,1698718449
435,mordovo,52.0834,40.77,10.110000000000014,80,59,6.13,RU,1698718450
436,mandalgovi,45.7625,106.2708,2.1999999999999886,52,51,6.02,MN,1698718451
437,callao,-12.0667,-77.15,22.220000000000027,82,0,5.14,PE,1698718451
438,tucurui,-3.7661,-49.6725,26.50999999999999,54,1,1.38,BR,1698718452
439,kuhdasht,33.535,47.6061,17.170000000000016,46,100,1.24,IR,1698718452
440,altay,47.8667,88.1167,6.259999999999991,93,100,2.13,CN,1698718161
441,gilgit,35.9221,74.3087,12.430000000000007,44,11,1.58,PK,1698718453
442,lakes,61.6071,-149.3086,4.689999999999998,71,0,1.54,US,1698718453
443,sao jose da coroa grande,-8.8978,-35.1478,24.569999999999993,73,78,3.15,BR,1698718453
444,kargopol',61.5071,38.9456,-6.6299999999999955,97,100,0.43,RU,1698718453
445,luganville,-15.5333,167.1667,26.430000000000007,84,66,5.62,VU,1698718454
446,yigo village,13.5361,144.8886,30.769999999999982,77,40,6.17,GU,1698718454
447,lavras,-21.2453,-44.9997,22.089999999999975,76,98,0.79,BR,1698718454
448,gbadolite,4.2833,21.0167,21.899999999999977,96,95,0.91,CD,1698718455
449,cuito,-12.3833,16.9333,16.829999999999984,88,100,2.44,AO,1698718455
450,lompoc,34.6391,-120.4579,17.939999999999998,83,0,4.92,US,1698718455
451,northam,51.0333,-4.2167,10.920000000000016,97,3,2.72,GB,1698718456
452,kaman,27.65,77.2667,23.180000000000007,48,6,1.48,IN,1698718456
453,kapit,2.0167,112.9333,28.980000000000018,74,100,0.17,MY,1698718456
454,punta del este,-34.9667,-54.95,12.860000000000014,78,100,4.47,UY,1698718457
455,inari,68.906,27.0288,-7.740000000000009,95,99,1.67,FI,1698718457
456,barkhan,29.8977,69.5256,18.160000000000025,43,10,0.7,PK,1698718458
457,quellon,-43.1167,-73.6167,5.1200000000000045,76,0,2.02,CL,1698718458
458,vera cruz,-12.6333,-41.0333,21.860000000000014,58,51,2.22,BR,1698718458
459,tshabong,-26.05,22.45,13.189999999999998,74,3,7.88,BW,1698718459
460,riviere-du-loup,47.8304,-69.5342,1.6399999999999864,100,88,1.54,CA,1698718459
461,troitsko-pechorsk,62.7084,56.1964,-7.240000000000009,98,96,1.34,RU,1698718459
462,enoch,37.7733,-113.0244,3.2900000000000205,34,0,0.89,US,1698718460
463,churapcha,62.0025,132.4325,-10.399999999999977,86,100,4.42,RU,1698718350
464,puerto madero,14.7208,-92.4215,26.25999999999999,100,40,0.0,MX,1698718460
465,bandarbeyla,9.4942,50.8122,26.470000000000027,83,99,5.16,SO,1698718460
466,alofi,-19.0595,-169.9187,27.089999999999975,65,75,6.69,NU,1698718461
467,kununurra,-15.7667,128.7333,36.04000000000002,33,100,2.45,AU,1698718461
468,torghay,49.6339,63.4981,2.3799999999999955,75,19,7.28,KZ,1698718461
469,abepura,-2.6333,140.5833,29.600000000000023,70,20,3.6,ID,1698718461
470,razole,16.4833,81.8333,25.529999999999973,77,4,2.94,IN,1698718462
471,constitucion,-35.3333,-72.4167,8.879999999999995,74,100,5.71,CL,1698718462
472,qacha's nek,-30.1154,28.6894,3.079999999999984,87,100,1.25,LS,1698718462
473,susuman,62.7833,148.1667,-13.189999999999998,94,85,0.45,RU,1698718462
474,touros,-5.1989,-35.4608,25.660000000000025,71,30,5.46,BR,1698718463
475,miracema do tocantins,-9.5618,-48.3967,28.819999999999993,32,36,1.11,BR,1698718464
476,aksu,41.1231,80.2644,12.870000000000005,35,100,1.08,CN,1698718464
477,conde,-7.2597,-34.9075,23.850000000000023,88,20,2.57,BR,1698718464
478,al mijlad,11.0333,27.7333,28.089999999999975,54,59,2.85,SD,1698718465
479,pong,19.1493,100.2752,22.410000000000025,97,99,0.85,TH,1698718465
480,kertih,4.5141,103.4483,28.819999999999993,75,87,1.34,MY,1698718465
481,puerto cabello,10.4731,-68.0125,28.120000000000005,82,100,3.53,VE,1698718466
482,nadi,-17.8,177.4167,34.14999999999998,52,20,4.63,FJ,1698718466
483,guadalupe y calvo,26.1,-106.9667,9.569999999999993,81,0,1.01,MX,1698718466
484,lerwick,60.1545,-1.1494,7.149999999999977,57,25,8.93,GB,1698718467
485,gafanha da nazare,40.6362,-8.7134,12.379999999999995,95,100,4.19,PT,1698718467
486,ziro,27.6333,93.8333,14.269999999999982,54,1,1.05,IN,1698718467
487,bardai,11.65,7.2333,23.720000000000027,26,97,3.74,NG,1698718468
488,waspan,14.7419,-83.9717,23.839999999999975,97,79,0.83,NI,1698718468
489,wynyard,-41.0,145.7167,14.579999999999984,48,68,5.95,AU,1698718468
490,semporna,4.4818,118.6112,29.480000000000018,69,94,1.14,MY,1698718468
491,twin falls,42.3505,-114.6445,1.2200000000000273,74,0,0.0,US,1698718255
492,ustka,54.5805,16.8619,10.509999999999991,84,100,4.67,PL,1698718469
493,kourou,5.1552,-52.6478,27.180000000000007,87,41,3.09,GF,1698718470
494,christchurch,-43.5333,172.6333,22.120000000000005,87,100,10.8,NZ,1698718363
495,el granada,37.5027,-122.4694,19.05000000000001,41,0,4.63,US,1698718471
496,freetown,8.484,-13.2299,26.0,85,27,2.36,SL,1698718471
497,xinqing,48.2333,129.5,1.910000000000025,58,100,2.4,CN,1698718472
498,aitape,-3.1374,142.3475,25.20999999999998,93,100,2.26,PG,1698718472
499,smara,26.7384,-11.6719,24.089999999999975,37,23,2.89,EH,1698718473
500,allariz,42.1904,-7.8018,11.720000000000027,92,94,1.72,ES,1698718473
501,dryden,49.7833,-92.7503,-3.6899999999999977,93,40,1.54,CA,1698718474
502,tual,-5.6667,132.75,27.95999999999998,79,45,4.03,ID,1698718474
503,lima,-12.0432,-77.0282,21.20999999999998,78,0,5.14,PE,1698718475
504,tobruk,32.0836,23.9764,20.939999999999998,81,28,1.24,LY,1698718476
505,katsuura,35.1333,140.3,21.019999999999982,54,9,2.62,JP,1698718476
506,sumbawa besar,-8.5,117.4333,34.77999999999997,34,3,3.54,ID,1698718477
507,lithgow,-33.4833,150.15,20.50999999999999,13,3,7.72,AU,1698718477
508,yemva,62.59,50.8594,-5.889999999999986,98,100,0.64,RU,1698718477
509,umluj,25.0213,37.2685,27.430000000000007,59,0,4.21,SA,1698718478
510,san mariano,7.5,126.0,28.720000000000027,74,97,1.92,PH,1698718478
511,chatham,51.3789,0.5279,9.629999999999995,95,0,0.45,GB,1698718478
512,puerto padre,21.195,-76.6028,25.600000000000023,89,98,0.23,CU,1698718478
513,peace river,56.2501,-117.286,-0.6800000000000068,86,100,1.03,CA,1698718479
514,stolbovaya,55.2528,37.4853,7.350000000000023,99,90,3.29,RU,1698718479
515,essaouira,31.5125,-9.77,19.870000000000005,88,40,1.54,MA,1698718479
516,shenjiamen,29.9576,122.298,22.129999999999995,60,0,2.83,CN,1698718479
517,okha,53.5739,142.9478,3.6299999999999955,71,41,8.91,RU,1698718480
518,saint-joseph,-21.3667,55.6167,23.360000000000014,77,9,3.59,RE,1698718480
519,elko,41.0002,-115.5012,3.839999999999975,32,0,1.79,US,1698718480
520,ijebu-igbo,6.9798,4.0033,24.54000000000002,94,98,1.08,NG,1698718480
521,nuriootpa,-34.4833,139.0,17.680000000000007,25,0,3.5,AU,1698718480
522,mount carmel,38.4109,-87.7614,3.0299999999999727,53,0,3.03,US,1698718481
523,lazaro cardenas,17.9583,-102.2,26.810000000000002,86,13,1.76,MX,1698718481
524,ovruch,51.3246,28.8035,10.899999999999977,81,100,2.23,UA,1698718481
525,ayorou,14.7308,0.9174,28.350000000000023,12,0,3.87,NE,1698718481
526,ruelle-sur-touvre,45.6833,0.2333,11.860000000000014,82,100,6.34,FR,1698718482
527,malkapur,20.8833,76.2,21.329999999999984,59,77,2.26,IN,1698718482
528,antofagasta,-23.65,-70.4,16.75,70,36,2.53,CL,1698718482
529,victoria,22.2855,114.1577,28.170000000000016,70,19,2.68,HK,1698718298
530,baturite,-4.3286,-38.8847,23.220000000000027,83,78,1.61,BR,1698718482
531,choyr,46.3611,108.3611,-1.3700000000000045,65,81,2.2,MN,1698718482
532,robertsport,6.7533,-11.3686,26.389999999999986,84,2,2.7,LR,1698718483
533,ola,59.5833,151.2833,-3.1000000000000227,64,18,2.34,RU,1698718483
534,ahar,38.4774,47.0699,8.600000000000023,83,100,1.39,IR,1698718483
535,homer,59.6425,-151.5483,8.930000000000007,76,0,0.89,US,1698718483
536,revda,56.801,59.9303,-6.839999999999975,98,93,1.17,RU,1698718483
537,acarau,-2.8856,-40.12,26.100000000000023,74,75,6.16,BR,1698718484
538,codrington,-38.2667,141.9667,13.779999999999973,51,75,7.34,AU,1698718484
539,akwanga,8.9167,8.3833,23.269999999999982,81,100,1.24,NG,1698718484
540,la passe,45.5549,-0.8967,15.139999999999986,84,81,11.35,FR,1698718484
541,beichengqu,40.4394,113.1536,12.740000000000009,35,18,2.68,CN,1698718484
542,arkhangel'sk,64.5401,40.5433,-8.110000000000014,97,54,2.0,RU,1698718484
